# Time (s),Altitude (m),Vertical velocity (m/s),Vertical acceleration (m/s^2),Position East of launch (m),Position North of launch (m),Lateral distance (m),Lateral velocity (m/s),Lateral acceleration (m/s^2),Roll rate (deg/s),Pitch rate (deg/s),Yaw rate (deg/s)
0,0,0,-6.635,0,0,0,0,2.415,0,0,0
0.01,0,0,-2.6053,0,0,0,0,0.94827,0,0,0
0.02,0,0,1.4252,0,0,0,0,0.51872,0,0,0
0.03,7.1282e-5,0.014257,7.2263,2.5945e-5,0,2.5945e-5,0.0051893,2.6301,0,0,0
0.04,5.753e-4,0.086552,15.611,2.0939e-4,0,2.0939e-4,0.031502,5.682,0,0,0
0.05,0.0022217,0.24275,24.028,8.0864e-4,0,8.0864e-4,0.088354,8.7455,0,0,0
0.06,0.0058511,0.48315,32.453,0.0021296,0,0.0021296,0.17585,11.812,0,0,0
0.07,0.012306,0.80782,40.883,0.004479,0,0.004479,0.29402,14.88,0,0,0
0.08,0.022429,1.2168,49.319,0.0081635,0,0.0081635,0.44289,17.951,0,0,0
0.09,0.037064,1.7102,59.671,0.01349,0,0.01349,0.62246,21.718,0,0,0
0.1,0.057151,2.3073,73.998,0.020801,0,0.020801,0.83977,26.933,0,0,0
0.11,0.083926,3.0479,88.496,0.030547,0,0.030547,1.1094,32.21,0,0,0
0.12,0.11883,3.9337,103.03,0.043252,0,0.043252,1.4318,37.499,0,0,0
0.13,0.16333,4.9649,117.56,0.059446,0,0.059446,1.8071,42.788,0,0,0
0.14,0.21886,6.1416,129.74,0.079658,0,0.079658,2.2353,47.22,0,0,0
0.15,0.28677,7.4405,140.35,0.10437,0,0.10437,2.7081,51.083,0,0,0
0.16,0.3682,8.8461,151.04,0.13401,0,0.13401,3.2197,54.975,0,0,0
0.17,0.46422,10.359,161.76,0.16896,0,0.16896,3.7703,58.877,0,0,0
0.18,0.57591,11.979,172.5,0.20961,0,0.20961,4.3599,62.786,0,0,0
0.19,0.70433,13.706,173.2,0.25635,0,0.25635,4.9886,63.038,0,0,0
0.2,0.85006,15.44,153.05,0.3094,0,0.3094,5.6199,55.705,0,0,0
0.21,1.0121,16.973,129.87,0.36838,0,0.36838,6.1777,47.27,0,0,0
0.22,1.1884,18.273,104.98,0.43253,0,0.43253,6.651,38.209,0,0,0
0.23,1.3763,19.324,86.163,0.50095,0,0.50095,7.0334,31.361,0,0,0
0.24,1.5739,20.186,76.456,0.57285,0,0.57285,7.3473,27.828,0,0,0
0.25,1.7796,20.951,71.931,0.64772,0,0.64772,7.6257,26.181,0,0,0
0.26,1.9927,21.671,69.876,0.72528,0,0.72528,7.8876,25.433,0,0,0
0.27,2.2129,22.37,67.811,0.80543,0,0.80543,8.142,24.681,0,0,0
0.28,2.44,23.048,65.742,0.88809,0,0.88809,8.3889,23.928,0,0,0
0.29,2.6738,23.706,64.008,0.97317,0,0.97317,8.6282,23.297,0,0,0
0.3,2.914,24.346,62.969,1.0606,0,1.0606,8.8613,22.919,0,0,0
0.31,3.1606,24.976,61.943,1.1504,0,1.1504,9.0905,22.546,0,0,0
0.32,3.4135,25.595,60.914,1.2424,0,1.2424,9.3159,22.171,0,0,0
0.33,3.6725,26.205,59.883,1.3367,0,1.3367,9.5377,21.796,0,0,0
0.34,3.9375,26.803,58.85,1.4331,0,1.4331,9.7557,21.42,0,0,0
0.35,4.2085,27.392,57.814,1.5318,0,1.5318,9.9699,21.043,0,0,0
0.36,4.4853,27.97,56.777,1.6325,0,1.6325,10.18,20.665,0,0,0
0.37,4.7679,28.538,55.929,1.7354,0,1.7354,10.387,20.357,0,0,0
0.38,5.056,29.097,55.267,1.8402,0,1.8402,10.591,20.116,0,0,0
0.39,5.3498,29.65,54.601,1.9472,0,1.9472,10.792,19.873,0,0,0
0.4,5.649,30.196,53.933,2.0561,0,2.0561,10.99,19.63,0,0,0
0.41,5.9537,30.735,53.256,2.167,0,2.167,11.187,19.383,0,0,0
0.42,6.2637,31.267,52.576,2.2798,0,2.2798,11.38,19.136,0,0,0
0.43,6.579,31.793,51.895,2.3946,0,2.3946,11.572,18.888,0,0,0
0.44,6.8995,32.312,51.213,2.5112,0,2.5112,11.761,18.64,0,0,0
0.45,7.2252,32.824,50.529,2.6298,0,2.6298,11.947,18.391,0,0,0
0.46,7.5559,33.329,49.844,2.7501,0,2.7501,12.131,18.142,0,0,0
0.47,7.8917,33.827,49.22,2.8724,0,2.8724,12.312,17.915,0,0,0
0.48,8.2325,34.319,48.962,2.9964,0,2.9964,12.491,17.821,0,0,0
0.49,8.5781,34.809,48.762,3.1222,0,3.1222,12.669,17.748,0,0,0
0.5,8.9286,35.296,49.859,3.2498,0,3.2498,12.847,14.105,0,0,0
0.50362,9.0568,35.477,49.84,3.2964,5.8716e-9,3.2964,12.898,14.123,0,4.0059,-1.5101e-4
0.50724,9.1855,35.657,49.751,3.3431,2.3441e-8,3.3431,12.949,14.161,0,8.0027,2.7642e-4
0.51087,9.3152,35.838,49.651,3.3902,5.2742e-8,3.3902,13.001,14.24,0,11.992,2.5457e-5
0.51452,9.4463,36.019,49.538,3.4378,9.3963e-8,3.4378,13.053,14.359,0,15.973,3.377e-4
0.51821,9.5795,36.202,49.411,3.486,1.4749e-7,3.486,13.106,14.519,0,19.948,3.5158e-4
0.52195,9.7153,36.386,49.27,3.5351,2.1389e-7,3.5351,13.161,14.723,0,23.914,0.0010549
0.52575,9.8542,36.574,49.114,3.5853,2.9389e-7,3.5853,13.218,14.97,0,27.871,8.4585e-4
0.52965,9.9971,36.765,48.94,3.637,3.8854e-7,3.637,13.276,15.265,0,31.819,8.6374e-4
0.53366,10.145,36.961,48.746,3.6903,4.9922e-7,3.6903,13.338,15.611,0,35.753,0.0015578
0.53781,10.299,37.163,48.53,3.7458,6.279e-7,3.7458,13.404,16.011,0,39.672,0.0011078
0.54214,10.46,37.373,48.287,3.804,7.7722e-7,3.804,13.474,16.472,0,43.574,0.0012895
0.54671,10.631,37.593,48.012,3.8657,9.5103e-7,3.8657,13.551,17.002,0,47.451,6.7332e-4
0.55158,10.815,37.826,47.701,3.9319,1.1551e-6,3.9319,13.635,17.601,0,51.296,0.0012963
0.55686,11.015,38.077,47.349,4.0042,1.3981e-6,4.0042,13.73,18.271,0,55.112,0.0021221
0.56269,11.238,38.352,46.931,4.0845,1.6923e-6,4.0845,13.839,19.061,0,58.866,0.0029005
0.56936,11.495,38.664,46.416,4.1773,2.0622e-6,4.1773,13.969,20.017,0,62.511,0.0038665
0.57751,11.812,39.04,45.738,4.2918,2.5612e-6,4.2918,14.138,21.239,0,65.932,0.0040986
0.58906,12.265,39.563,44.694,4.4565,3.3598e-6,4.4565,14.394,23.013,3.4941e-7,68.665,0.013805
0.60638,12.958,40.325,43.009,4.7095,4.762e-6,4.7095,14.816,25.637,3.8092e-7,-67.769,0.013571
0.6241,13.679,41.074,41.258,4.9762,6.4405e-6,4.9762,15.295,28.184,9.5628e-7,-60.804,0.0071917
0.63136,13.978,41.372,40.651,5.0879,7.1982e-6,5.0879,15.503,29.163,9.4049e-7,-56.366,0.0060667
0.63734,14.226,41.614,40.113,5.1812,7.8548e-6,5.1812,15.68,29.869,9.3718e-7,-52.1,0.0051287
0.64264,14.447,41.825,39.659,5.2647,8.4613e-6,5.2647,15.84,30.429,9.1803e-7,-47.912,0.0054971
0.6475,14.651,42.017,39.267,5.342,9.0387e-6,5.342,15.989,30.886,8.91e-7,-43.772,0.0043614
0.65204,14.842,42.195,38.912,5.415,9.5986e-6,5.415,16.13,31.288,9.1409e-7,-39.661,0.0040936
0.65635,15.024,42.362,38.585,5.4847,1.0146e-5,5.4847,16.266,31.652,8.5535e-7,-35.556,0.0036342
0.66044,15.198,42.519,38.3,5.5515,1.0683e-5,5.5515,16.396,31.949,8.2709e-7,-31.471,0.0042151
0.66437,15.365,42.67,38.053,5.6163,1.1215e-5,5.6163,16.522,32.188,8.3813e-7,-27.405,0.0035599
0.66819,15.528,42.815,37.857,5.6795,1.1747e-5,5.6795,16.645,32.382,8.0031e-7,-23.354,0.0034451
0.67191,15.688,42.955,38.028,5.7418,1.228e-5,5.7418,16.766,32.707,7.4862e-7,-19.316,0.0032358
0.67557,15.846,43.094,38.361,5.8033,1.2818e-5,5.8033,16.886,33.057,7.7435e-7,-15.288,0.0028735
0.67918,16.001,43.233,38.717,5.8645,1.3365e-5,5.8645,17.006,33.36,7.5472e-7,-11.269,0.0031063
0.68277,16.157,43.371,39.096,5.9257,1.3922e-5,5.9257,17.125,33.619,7.2495e-7,-7.2597,0.0030288
0.68634,16.312,43.511,39.501,5.9872,1.4493e-5,5.9872,17.245,33.835,6.9867e-7,-3.2604,0.0036648
0.68992,16.468,43.653,39.935,6.0491,1.508e-5,6.0491,17.367,34.008,7.1009e-7,0.72899,0.0037959
0.69353,16.626,43.797,40.398,6.1119,1.5688e-5,6.1119,17.489,34.14,6.9817e-7,4.7071,0.0044559
0.69717,16.786,43.944,40.895,6.1759,1.632e-5,6.1759,17.613,34.228,7.1133e-7,8.6752,0.0040098
0.70088,16.949,44.096,41.104,6.2415,1.6982e-5,6.2415,17.74,34.093,7.2548e-7,12.63,0.0040881
0.70469,17.117,44.253,40.363,6.3093,1.7681e-5,6.3093,17.869,33.36,6.7329e-7,16.564,0.004678
0.70864,17.292,44.412,39.554,6.3801,1.8428e-5,6.3801,18,32.519,7.076e-7,20.479,0.0054682
0.71277,17.476,44.576,38.729,6.4547,1.9236e-5,6.4547,18.134,31.591,7.657e-7,24.37,0.0059349
0.71714,17.671,44.746,37.875,6.5343,2.012e-5,6.5343,18.271,30.558,7.3997e-7,28.23,0.0068598
0.72185,17.882,44.925,37.334,6.6207,2.111e-5,6.6207,18.413,29.583,7.3479e-7,32.05,0.0078666
0.72705,18.116,45.12,37.78,6.7168,2.2246e-5,6.7168,18.565,28.987,7.0402e-7,35.805,0.0078706
0.73299,18.385,45.345,38.362,6.8277,2.3607e-5,6.8277,18.735,28.265,5.9893e-7,39.454,0.0089775
0.74024,18.715,45.625,39.101,6.9641,2.536e-5,6.9641,18.936,27.316,7.8027e-7,42.882,0.011615
0.75046,19.183,46.029,40.17,7.1591,2.802e-5,7.1591,19.208,25.899,8.2402e-7,45.654,0.031074
0.76579,19.894,46.654,41.696,7.4565,3.2459e-5,7.4565,19.587,23.801,7.4154e-7,-45.151,0.023176
0.78464,20.78,47.451,43.36,7.8298,3.8724e-5,7.8298,20.01,21.338,9.7207e-7,-37.313,0.0086196
0.79126,21.095,47.738,43.687,7.9627,4.1132e-5,7.9627,20.148,20.517,9.2215e-7,-32.923,0.0069656
0.79682,21.362,47.982,44.044,8.0751,4.3237e-5,8.0751,20.26,19.965,9.2467e-7,-28.688,0.0070066
0.80182,21.602,48.202,44.33,8.1766,4.5185e-5,8.1766,20.359,19.556,8.5259e-7,-24.525,0.0061171
0.80646,21.826,48.408,44.561,8.2713,4.7042e-5,8.2713,20.449,19.267,7.916e-7,-20.419,0.0060211
0.81088,22.041,48.606,44.754,8.3619,4.885e-5,8.3619,20.533,19.059,7.478e-7,-16.344,0.0057268
0.81515,22.249,48.797,44.914,8.4498,5.0632e-5,8.4498,20.614,18.923,6.9338e-7,-12.292,0.0060104
0.81933,22.453,48.984,45.045,8.536,5.2404e-5,8.536,20.693,18.855,7.0839e-7,-8.2614,0.0052986
0.82344,22.655,49.17,45.15,8.6213,5.4181e-5,8.6213,20.771,18.851,7.2022e-7,-4.2509,0.0051826
0.82754,22.857,49.355,45.229,8.7066,5.5977e-5,8.7066,20.848,18.911,7.3104e-7,-0.25681,0.0039939
0.83166,23.06,49.541,45.283,8.7926,5.7806e-5,8.7926,20.926,19.034,7.0622e-7,3.7209,0.0050751
0.83584,23.268,49.73,45.313,8.8802,5.9685e-5,8.8802,21.006,19.223,7.1607e-7,7.6774,0.0048601
0.84011,23.481,49.923,45.317,8.9701,6.1631e-5,8.9701,21.088,19.48,6.3456e-7,11.611,0.0052985
0.84454,23.702,50.124,45.294,9.0637,6.3672e-5,9.0637,21.175,19.814,5.9499e-7,15.52,0.0054555
0.8492,23.936,50.334,45.183,9.1625,6.5842e-5,9.1625,21.268,20.205,6.0526e-7,19.393,0.0063922
0.85418,24.187,50.559,44.945,9.2687,6.8188e-5,9.2687,21.37,20.539,6.1481e-7,23.261,0.0074821
0.8595,24.457,50.797,44.661,9.3828,7.0727e-5,9.3828,21.48,20.95,6.3532e-7,27.098,0.0078057
0.86532,24.754,51.057,44.312,9.5083,7.3532e-5,9.5083,21.604,21.48,6.0081e-7,30.861,0.0089463
0.87195,25.093,51.349,43.869,9.652,7.6764e-5,9.652,21.748,22.169,4.938e-7,34.505,0.013126
0.88007,25.511,51.703,43.269,9.8291,8.077e-5,9.8291,21.932,23.106,6.6616e-7,37.899,0.017718
0.8918,26.121,52.205,42.318,10.088,8.6665e-5,10.088,22.212,24.559,4.8702e-7,40.483,0.063714
0.90939,27.046,52.938,40.683,10.483,9.5742e-5,10.483,22.665,27.04,6.2645e-7,-38.609,0.021021
0.92105,27.666,53.407,39.613,10.749,1.0191e-4,10.749,22.991,28.697,4.6508e-7,-32.874,0.012963
0.92739,28.005,53.656,39.1,10.895,1.0532e-4,10.895,23.175,29.467,4.9908e-7,-28.44,0.0094011
0.93263,28.287,53.86,38.706,11.017,1.0817e-4,11.017,23.331,29.999,5.0223e-7,-24.188,0.0061379
0.9373,28.539,54.04,38.396,11.126,1.1073e-4,11.126,23.472,30.389,4.0776e-7,-20.02,0.0063524
0.94162,28.772,54.206,38.148,11.228,1.1313e-4,11.228,23.604,30.673,3.0279e-7,-15.904,0.0062501
0.94571,28.995,54.361,37.952,11.325,1.1542e-4,11.325,23.73,30.872,3.0506e-7,-11.821,0.0055938
0.94966,29.209,54.511,37.801,11.419,1.1764e-4,11.419,23.852,30.995,3.4548e-7,-7.7642,0.0041988
0.9535,29.419,54.656,37.772,11.511,1.1983e-4,11.511,23.971,30.884,3.7185e-7,-3.7918,0.0033803
0.95742,29.633,54.804,37.785,11.605,1.2208e-4,11.605,24.092,30.691,3.3298e-7,0.1494,0.0037507
0.96146,29.855,54.957,37.835,11.702,1.2442e-4,11.702,24.215,30.426,0,4.0646,0.0042249
0.96569,30.088,55.117,37.925,11.805,1.269e-4,11.805,24.343,30.081,0,7.9497,0.0031815
0.97019,30.337,55.289,38.058,11.915,1.2957e-4,11.915,24.478,29.643,0,11.789,0.003752
0.97511,30.609,55.476,38.242,12.036,1.3252e-4,12.036,24.622,29.09,0,15.565,0.0039942
0.98066,30.918,55.689,38.489,12.173,1.3591e-4,12.173,24.782,28.384,0,19.233,0.0043006
0.98734,31.291,55.948,38.826,12.339,1.4006e-4,12.339,24.969,27.443,0,22.699,0.0059114
0.99654,31.807,56.307,39.325,12.57,1.4593e-4,12.57,25.215,26.039,0,25.58,0.010401
1.0103,32.587,56.855,39.911,12.92,1.5513e-4,12.92,25.561,24.215,3.888e-7,-25.911,0.0071375
1.031,33.772,57.689,40.525,13.454,1.6995e-4,13.454,26.038,21.917,1.2045e-6,-19.354,-6.0794e-4
1.0392,34.246,58.022,40.726,13.668,1.7618e-4,13.668,26.215,21.273,1.3621e-6,-14.904,0.0010285
1.046,34.639,58.298,40.777,13.845,1.815e-4,13.845,26.358,20.861,1.234e-6,-10.687,0.0018091
1.0521,34.998,58.549,40.779,14.008,1.8646e-4,14.008,26.485,20.569,1.1843e-6,-6.5639,0.0014775
1.0579,35.337,58.785,40.754,14.161,1.9125e-4,14.161,26.603,20.341,9.9416e-7,-2.4553,8.8317e-4
1.0634,35.662,59.009,40.698,14.308,1.9592e-4,14.308,26.715,20.242,1.0099e-6,1.5877,0.0016679
1.0688,35.982,59.23,40.608,14.453,2.006e-4,14.453,26.825,20.259,8.9422e-7,5.5806,0.0017117
1.0743,36.306,59.451,40.468,14.6,2.0542e-4,14.6,26.936,20.381,9.6879e-7,9.5193,6.243e-4
1.08,36.643,59.68,40.273,14.753,2.105e-4,14.753,27.052,20.615,1.0972e-6,13.399,2.2917e-5
1.086,37.005,59.923,40.012,14.917,2.1603e-4,14.917,27.178,20.976,9.6847e-7,17.21,-1.0869e-4
1.0927,37.41,60.191,39.662,15.101,2.2231e-4,15.101,27.321,21.494,1.1327e-6,20.892,-1.2547e-5
1.1008,37.898,60.51,39.175,15.322,2.3001e-4,15.322,27.497,22.241,9.7952e-7,24.344,0.0031221
1.1121,38.582,60.947,38.423,15.633,2.4103e-4,15.633,27.754,23.391,6.592e-7,27.122,0.011743
1.129,39.618,61.587,37.233,16.106,2.5812e-4,16.106,28.165,25.154,3.9487e-7,-26.448,0.013453
1.1481,40.804,62.289,36.063,16.65,2.7819e-4,16.65,28.663,26.731,-1.1698e-6,-19.304,0.0044897
1.1559,41.29,62.568,35.695,16.874,2.8656e-4,16.874,28.873,27.221,-1.0777e-6,-14.927,0.006638
1.1625,41.702,62.802,35.439,17.065,2.9369e-4,17.065,29.053,27.498,-1.3168e-6,-10.726,0.004975
1.1685,42.081,63.015,35.275,17.24,3.003e-4,17.24,29.219,27.617,-1.0473e-6,-6.6345,0.0050244
1.1743,42.447,63.219,35.185,17.41,3.0673e-4,17.41,29.38,27.607,-9.9978e-7,-2.6092,0.002806
1.1801,42.813,63.423,35.161,17.58,3.132e-4,17.58,29.539,27.475,-9.4418e-7,1.3451,0.003133
1.1861,43.191,63.632,35.204,17.757,3.1993e-4,17.757,29.702,27.218,-9.2545e-7,5.2235,0.0019093
1.1924,43.598,63.857,35.317,17.947,3.2723e-4,17.947,29.874,26.816,-1.0043e-6,9.0049,-0.0010175
1.1996,44.059,64.112,35.516,18.163,3.3558e-4,18.163,30.066,26.226,-7.7851e-7,12.628,2.6921e-4
1.2086,44.636,64.433,35.546,18.433,3.4613e-4,18.433,30.297,25.144,-1.0088e-6,15.868,-0.0012968
1.2221,45.506,64.912,34.149,18.843,3.6232e-4,18.843,30.623,22.593,-1.463e-6,-17.571,-0.068095
1.2423,46.823,65.602,33.631,19.466,3.8748e-4,19.466,31.054,19.862,-3.3058e-6,-12.922,0.0017276
1.2518,47.453,65.924,34.026,19.764,3.9983e-4,19.764,31.24,19.284,-3.9791e-6,-8.2732,0.0014067
1.2593,47.943,66.176,34.333,19.996,4.0954e-4,19.996,31.381,19.14,-3.7215e-6,-4.0714,6.1106e-5
1.2661,48.396,66.41,34.562,20.211,4.186e-4,20.211,31.512,19.187,-3.8512e-6,-0.012965,-0.0031512
1.2728,48.841,66.642,34.719,20.423,4.2759e-4,20.423,31.64,19.394,-3.6246e-6,3.9359,-0.0040291
1.2797,49.305,66.882,34.812,20.643,4.3702e-4,20.643,31.776,19.768,-3.7538e-6,7.7795,-0.0023518
1.2873,49.815,67.146,34.84,20.885,4.475e-4,20.885,31.928,20.344,-3.6937e-6,11.458,1.5505e-4
1.2965,50.434,67.465,34.782,21.18,4.6036e-4,21.18,32.118,21.217,-3.3544e-6,14.826,0.0018042
1.3102,51.362,67.937,34.223,21.622,4.7995e-4,21.622,32.416,22.357,-3.9139e-6,17.269,0.02109
1.3308,52.766,68.63,33.28,22.293,5.1029e-4,22.293,32.892,23.908,-3.9848e-6,-15.229,0.011817
1.3467,53.862,69.154,32.737,22.82,5.3452e-4,22.82,33.279,24.667,-4.5773e-6,-9.8421,5.9362e-4
1.3565,54.543,69.474,32.533,23.148,5.4974e-4,23.148,33.522,24.878,-4.2362e-6,-5.5982,-8.4117e-4
1.3654,55.159,69.761,32.473,23.446,5.6364e-4,23.446,33.742,24.866,-4.0951e-6,-1.5628,-0.0033194
1.3743,55.779,70.049,32.531,23.746,5.7766e-4,23.746,33.962,24.639,-3.8158e-6,2.2606,-0.0065956
1.3842,56.475,70.372,32.718,24.084,5.9346e-4,24.084,34.203,24.163,-3.2823e-6,5.825,-0.011359
1.3973,57.399,70.802,33.098,24.534,6.145e-4,24.534,34.514,23.288,-3.9155e-6,8.6856,-0.020174
1.4169,58.796,71.458,33.748,25.216,6.4655e-4,25.216,34.956,21.791,-4.4749e-6,-7.9565,-0.021667
1.4376,60.284,72.161,34.112,25.945,6.8184e-4,25.945,35.395,20.766,-3.3619e-6,-1.4582,-0.017279
1.4476,61.005,72.5,34.061,26.299,6.9972e-4,26.299,35.601,20.649,-3.059e-6,2.6925,-0.018938
1.4571,61.699,72.824,33.898,26.639,7.1756e-4,26.639,35.798,20.81,-2.8889e-6,6.5597,-0.014393
1.4676,62.462,73.177,33.585,27.015,7.3789e-4,27.015,36.018,21.244,-3.1289e-6,10.091,-0.020192
1.4815,63.487,73.641,33.011,27.52,7.663e-4,27.52,36.32,22.101,-2.8312e-6,12.809,-0.051172
1.5025,65.036,74.322,32.101,28.285,8.1106e-4,28.285,36.797,23.448,-4.3943e-6,-11.565,-0.009544
1.522,66.492,74.941,31.532,29.008,8.5404e-4,29.008,37.262,24.127,-6.7232e-6,-5.7668,0.0068956
1.5332,67.331,75.292,31.42,29.425,8.7892e-4,29.425,37.531,24.088,-6.6816e-6,-1.7041,0.0034228
1.5444,68.18,75.646,31.492,29.849,9.0421e-4,29.849,37.8,23.744,-6.1539e-6,1.9649,3.7492e-4
1.5585,69.245,76.089,31.806,30.382,9.3606e-4,30.382,38.128,22.896,-5.6332e-6,4.8178,-0.018735
1.5795,70.854,76.764,32.357,31.19,9.8461e-4,31.19,38.594,21.449,-8.0209e-6,-3.4618,-0.011914
1.5981,72.284,77.366,32.504,31.909,0.0010287,31.909,38.984,20.76,-9.1133e-6,2.1828,-0.017551
1.6091,73.143,77.724,32.305,32.343,0.0010559,32.343,39.214,20.877,-8.6635e-6,6.0783,-0.021031
1.6214,74.096,78.117,31.912,32.823,0.0010868,32.823,39.471,21.373,-9.3272e-6,9.4112,-0.043418
1.6397,75.533,78.694,31.147,33.551,0.0011352,33.551,39.872,22.443,-8.5418e-6,-10.954,-0.16347
1.6672,77.709,79.536,30.191,34.656,0.0012119,34.656,40.505,23.198,-4.005e-6,-5.9493,-0.0078828
1.6834,78.998,80.022,30.016,35.313,0.0012586,35.313,40.878,22.923,-1.5046e-6,-2.1768,-0.0071783
1.7033,80.596,80.62,30.011,36.131,0.0013168,36.131,41.327,22.136,-5.3393e-6,0.31191,-0.0026815
1.7331,83.016,81.514,29.821,37.375,0.0014045,37.375,41.975,21.337,-5.016e-6,0.52985,-0.030008
1.7779,86.696,82.833,28.885,39.275,0.001545,39.275,42.926,21.183,-2.8205e-5,3.9463,-0.069498
1.8279,90.873,84.22,-19.991,41.448,0.0017167,41.448,43.976,5.4225,-2.8361e-5,-2.3565,0.0037818
1.8779,95.059,83.24,-35.463,43.64,0.0018946,43.64,43.701,14.758,-3.8098e-5,2.5987,0.044401
1.9275,99.141,81.503,-34.644,45.788,0.0020776,45.788,42.99,13.852,-2.5222e-5,-4.106,0.24006
1.9775,103.17,79.8,-33.304,47.921,0.0022542,47.921,42.303,14.02,-3.1872e-5,4.1185,-0.090488
2.0076,105.56,78.805,-32.904,49.189,0.0023637,49.189,41.885,13.465,-3.4399e-5,7.9498,-0.36687
2.0528,109.09,77.321,-32.473,51.068,0.0025442,51.068,41.316,12.276,-6.1411e-5,-1.9468,-0.036785
2.0776,111,76.524,-31.696,52.091,0.0026442,52.091,41.007,12.633,-5.9012e-5,0.17479,-0.10909
2.1149,113.83,75.362,-30.908,53.61,0.0027882,53.61,40.531,12.51,-6.9838e-5,2.8395,-0.019256
2.1649,117.56,73.83,-30.079,55.621,0.0029856,55.621,39.932,12.003,-8.6217e-5,1.631,0.0056937
2.2149,121.21,72.35,-29.293,57.603,0.0031941,57.603,39.333,11.645,-1.0211e-4,5.9948,-0.0049753
2.2649,124.8,70.897,-28.645,59.555,0.0034056,59.555,38.771,11.126,-9.7093e-5,-4.5857,-0.042238
2.3149,128.3,69.486,-27.952,61.48,0.0036195,61.48,38.217,10.788,-9.5153e-5,-5.7328,0.17275
2.3649,131.74,68.101,-27.48,63.378,0.0038324,63.378,37.696,10.026,-6.8037e-5,-2.16,0.0069445
2.3962,133.87,67.245,-27,64.555,0.0039699,64.555,37.386,9.8202,-6.5231e-5,1.9943,0.017543
2.4324,136.28,66.291,-25.774,65.902,0.0041339,65.902,37.01,10.911,-5.5551e-5,0.89548,0.029177
2.4486,137.35,65.877,-25.46,66.499,0.0042077,66.499,36.832,11.026,-5.5742e-5,5.4721,0.042213
2.4619,138.22,65.54,-25.419,66.987,0.004268,66.987,36.687,10.749,-5.5325e-5,9.189,0.049085
2.4781,139.28,65.127,-25.522,67.58,0.0043408,67.58,36.517,10.162,-5.5605e-5,12.115,0.091983
2.5024,140.86,64.504,-25.741,68.465,0.004449,68.465,36.282,9.2036,-5.4504e-5,-11.795,0.045141
2.5341,142.89,63.687,-25.661,69.61,0.004591,69.61,36.003,8.5727,-4.8062e-5,-4.9497,0.005273
2.5498,143.89,63.287,-25.362,70.174,0.004663,70.174,35.868,8.6782,-4.6689e-5,-1.2693,-0.0040915
2.5695,145.13,62.793,-24.74,70.88,0.0047553,70.88,35.692,9.2376,-4.8429e-5,0.99763,0.014988
2.5991,146.98,62.075,-23.913,71.931,0.0048964,71.931,35.407,9.9281,-5.1471e-5,2.2068,0.016311
2.6181,148.15,61.621,-23.752,72.603,0.0049879,72.603,35.219,9.7466,-5.3985e-5,6.1624,0.026593
2.6392,149.45,61.12,-23.771,73.344,0.0050893,73.344,35.019,9.234,-5.5634e-5,9.0749,0.055707
2.6709,151.37,60.365,-23.872,74.45,0.005241,74.45,34.74,8.3772,-5.4687e-5,-8.2675,0.023549
2.7052,153.43,59.549,-23.6,75.636,0.0054063,75.636,34.461,8.0821,-4.998e-5,-2.9201,-0.0065928
2.7317,155,58.932,-23.026,76.546,0.0055361,76.546,34.242,8.4548,-4.9676e-5,-0.64294,-0.010146
2.7714,157.32,58.03,-22.58,77.899,0.0057336,77.899,33.901,8.3065,-5.1177e-5,2.7805,0.014259
2.8214,160.19,56.908,-22.181,79.584,0.0059853,79.584,33.504,7.8495,-5.0319e-5,-0.40957,-1.8449e-4
2.8714,163.01,55.817,-21.318,81.25,0.0062391,81.25,33.106,8.259,-4.295e-5,1.9648,0.0089329
2.8982,164.5,55.251,-20.979,82.134,0.006374,82.134,32.883,8.3448,-4.1718e-5,6.9393,-0.0020475
2.9183,165.61,54.829,-21.083,82.792,0.0064748,82.792,32.72,7.8154,-4.0768e-5,9.8475,-0.022764
2.9484,167.25,54.191,-21.297,83.774,0.0066271,83.774,32.498,6.9543,-3.9738e-5,-8.9171,-0.021957
2.9799,168.95,53.52,-21.164,84.796,0.0067902,84.796,32.286,6.6288,-3.5106e-5,-3.6029,-0.018415
3.002,170.12,53.057,-20.826,85.506,0.0069068,85.506,32.138,6.7786,-3.5262e-5,-0.1806,-0.015787
3.0351,171.87,52.383,-19.962,86.566,0.0070845,86.566,31.899,7.6276,-3.325e-5,1.0872,0.015442
3.0609,173.21,51.874,-19.559,87.386,0.0072236,87.386,31.698,7.8891,-3.3071e-5,6.6281,0.023401
3.077,174.04,51.56,-19.491,87.895,0.0073101,87.895,31.572,7.7733,-3.2774e-5,10.521,0.022673
3.0946,174.95,51.216,-19.545,88.45,0.0074043,88.45,31.438,7.4579,-3.2561e-5,13.923,0.035993
3.1209,176.29,50.697,-19.854,89.277,0.0075453,89.277,31.251,6.6373,-3.1511e-5,-15.233,0.064525
3.1605,178.28,49.904,-20.135,90.509,0.007758,90.509,31.008,5.6906,-2.6792e-5,-7.8431,-0.0020456
3.1743,178.97,49.626,-20.117,90.936,0.007833,90.936,30.931,5.5086,-2.734e-5,-3.5468,3.8387e-5
3.1867,179.58,49.378,-19.991,91.318,0.0079006,91.318,30.864,5.4992,-2.7382e-5,0.41236,0.0038332
3.1996,180.22,49.122,-19.762,91.715,0.0079715,91.715,30.792,5.6265,-2.7913e-5,4.1116,0.0067394
3.2151,180.98,48.818,-19.377,92.194,0.0080577,92.194,30.702,5.9377,-2.741e-5,7.2882,0.0037537
3.2385,182.11,48.373,-18.744,92.909,0.0081877,92.909,30.557,6.5002,-2.8253e-5,-8.4332,0.012853
3.2735,183.79,47.732,-17.888,93.974,0.008384,93.974,30.315,7.2903,-1.8806e-5,-1.9571,0.0046339
3.2864,184.41,47.503,-17.71,94.364,0.0084564,94.364,30.22,7.3927,-1.884e-5,2.3452,0.0053594
3.2978,184.95,47.301,-17.643,94.709,0.0085205,94.709,30.136,7.3479,-1.8764e-5,6.3637,0.0050092
3.3092,185.49,47.099,-17.617,95.054,0.008585,95.054,30.052,7.2536,-1.9386e-5,10.269,0.0085679
3.3214,186.06,46.885,-17.66,95.417,0.008653,95.417,29.966,7.0536,-1.8835e-5,14.005,0.0072766
3.3355,186.72,46.634,-17.794,95.842,0.0087327,95.842,29.868,6.7016,-1.9178e-5,17.399,0.012922
3.3565,187.7,46.258,-18.137,96.466,0.0088505,96.466,29.734,5.9792,-1.8532e-5,0,0
3.3879,189.14,45.679,-18.711,97.397,0.0090276,97.397,29.566,4.8206,-2.1001e-5,-14.269,0.0048329
3.4009,189.73,45.434,-18.795,97.781,0.0091013,97.781,29.505,4.5615,-2.1256e-5,-9.8096,0.0019495
3.4118,190.22,45.231,-18.757,98.101,0.0091627,98.101,29.456,4.4934,-2.108e-5,-5.7219,0.0046849
3.4223,190.7,45.033,-18.641,98.412,0.0092227,98.412,29.409,4.5315,-2.1257e-5,-1.8021,0.0036488
3.4335,191.2,44.826,-18.443,98.74,0.0092861,98.74,29.358,4.6709,-2.1086e-5,1.9423,0.0031754
3.4464,191.78,44.589,-18.139,99.12,0.00936,99.12,29.295,4.9329,-2.1158e-5,5.3926,-0.0010969
3.4647,192.59,44.263,-17.598,99.654,0.0094641,99.654,29.201,5.4712,-2.1716e-5,7.8688,-0.0030933
3.492,193.8,43.792,-16.833,100.45,0.0096208,100.45,29.04,6.2468,-1.9669e-5,-5.5527,-0.0046835
3.5118,194.66,43.464,-16.502,101.02,0.0097341,101.02,28.914,6.4993,-1.9996e-5,-0.4458,-0.0067937
3.5254,195.25,43.24,-16.409,101.42,0.0098128,101.42,28.825,6.4784,-2.0337e-5,3.6448,-0.0090411
3.5387,195.82,43.022,-16.404,101.8,0.0098897,101.8,28.739,6.3366,-2.0526e-5,7.4989,-0.012467
3.5534,196.45,42.781,-16.492,102.22,0.0099746,102.22,28.648,6.0488,-2.0234e-5,11.057,-0.015937
3.5729,197.28,42.456,-16.739,102.78,0.010088,102.78,28.536,5.4834,-2.0724e-5,13.691,-0.045608
3.6022,198.52,41.96,-17.074,103.61,0.01026,103.61,28.387,4.7213,-2.0876e-5,-12.365,-0.014159
3.6318,199.75,41.457,-16.903,104.45,0.010435,104.45,28.248,4.7259,-2.16e-5,-8.422,-0.0062049
3.6649,201.12,40.902,-16.694,105.38,0.010633,105.38,28.089,4.717,-2.1068e-5,-5.3317,-0.0044211
3.7046,202.73,40.243,-16.466,106.49,0.010872,106.49,27.904,4.623,-2.0766e-5,-1.3236,-0.0072067
3.7488,204.49,39.523,-16.105,107.72,0.011138,107.72,27.701,4.6392,-1.6339e-5,1.7285,-0.016843
3.7988,206.45,38.743,-15.195,109.1,0.01144,109.1,27.445,5.4947,-2.2115e-5,4.1492,-0.017788
3.8156,207.1,38.489,-14.937,109.56,0.011541,109.56,27.35,5.7499,-2.2028e-5,8.8237,-0.020717
3.8285,207.59,38.299,-14.821,109.91,0.011619,109.91,27.275,5.8377,-2.177e-5,13.027,-0.026443
3.8403,208.04,38.124,-14.784,110.24,0.011691,110.24,27.206,5.8243,-2.1694e-5,17.034,-0.031078
3.8522,208.5,37.947,-14.838,110.56,0.011764,110.56,27.137,5.6842,-2.1682e-5,20.862,-0.038879
3.8658,209.01,37.745,-15.086,110.93,0.011847,110.93,27.063,5.2563,-2.2016e-5,24.088,-0.060119
3.886,209.77,37.434,-15.502,111.47,0.011972,111.47,26.964,4.583,-2.2298e-5,-25.744,-1.2509
3.9165,210.9,36.954,-16.039,112.29,0.012162,112.29,26.838,3.7388,-1.962e-5,-21.475,-0.023563
3.9323,211.48,36.699,-16.189,112.72,0.012261,112.72,26.781,3.468,-1.9349e-5,-16.847,-0.011551
3.9445,211.93,36.5,-16.22,113.04,0.012338,113.04,26.739,3.3605,-1.9405e-5,-12.661,-0.0078939
3.9559,212.35,36.316,-16.238,113.35,0.012409,113.35,26.701,3.2573,-1.9219e-5,-8.5921,-0.0053681
3.9666,212.74,36.142,-16.241,113.63,0.012477,113.63,26.667,3.163,-1.9042e-5,-4.4828,-0.0038767
3.9769,213.1,35.976,-16.182,113.91,0.012541,113.91,26.635,3.143,-1.9014e-5,-0.48862,-0.0036756
3.9872,213.48,35.809,-16.064,114.18,0.012606,114.18,26.602,3.188,-1.9005e-5,3.4006,-0.0052756
3.9983,213.87,35.632,-15.881,114.48,0.012676,114.48,26.566,3.2996,-1.8683e-5,7.1678,-0.0067213
4.011,214.32,35.434,-15.443,114.81,0.012755,114.81,26.522,3.7379,-1.8938e-5,10.348,-0.012564
4.0299,214.99,35.147,-14.74,115.32,0.012874,115.32,26.444,4.477,-1.9458e-5,-11.498,-0.067548
4.0584,215.99,34.741,-13.953,116.07,0.013052,116.07,26.303,5.279,-1.8448e-5,-5.6435,-0.014235
4.0713,216.43,34.561,-13.821,116.41,0.013133,116.41,26.234,5.3423,-1.8207e-5,-1.4265,-0.015085
4.0832,216.84,34.398,-13.766,116.72,0.013207,116.72,26.171,5.3183,-1.7766e-5,2.619,-0.014623
4.0949,217.24,34.236,-13.77,117.02,0.013281,117.02,26.109,5.221,-1.742e-5,6.5315,-0.015066
4.1073,217.67,34.066,-13.796,117.35,0.013358,117.35,26.045,5.0987,-1.7408e-5,10.345,-0.015593
4.1208,218.13,33.879,-13.858,117.7,0.013444,117.7,25.977,4.9317,-1.773e-5,14.086,-0.018827
4.1364,218.65,33.661,-13.992,118.1,0.013543,118.1,25.902,4.6652,-1.7332e-5,17.565,-0.024706
4.1581,219.38,33.355,-14.241,118.66,0.013681,118.66,25.806,4.232,-1.7555e-5,20.301,-0.049405
4.1906,220.46,32.886,-14.614,119.5,0.013889,119.5,25.679,3.6152,-1.6678e-5,-19.467,-0.016772
4.2269,221.64,32.353,-14.647,120.43,0.014124,120.43,25.553,3.4309,-1.4611e-5,-14.008,-0.0062719
4.2522,222.46,31.984,-14.492,121.08,0.014288,121.08,25.465,3.5054,-1.5329e-5,-10.36,-1.2184e-4
4.2833,223.44,31.535,-14.405,121.87,0.014491,121.87,25.358,3.4236,-1.5921e-5,-6.122,9.6295e-4
4.3131,224.38,31.109,-14.209,122.62,0.014685,122.62,25.255,3.4624,-1.5332e-5,-2.6126,0.0016222
4.3526,225.59,30.554,-13.855,123.61,0.014944,123.61,25.116,3.611,-1.5641e-5,-0.0013932,0.0059533
4.4026,227.11,29.876,-13.304,124.87,0.015271,124.87,24.925,3.9572,-1.4815e-5,2.7952,-0.0068907
4.437,228.12,29.419,-13.329,125.72,0.015497,125.72,24.793,3.6979,-1.4861e-5,6.0374,-0.010824
4.487,229.58,28.758,-13.01,126.96,0.015827,126.96,24.608,3.839,-1.6968e-5,10.115,-0.0093536
4.5177,230.46,28.359,-13.058,127.71,0.016032,127.71,24.491,3.6415,-1.4932e-5,14.055,-0.014276
4.5639,231.75,27.749,-13.348,128.84,0.01634,128.84,24.337,3.097,-1.4031e-5,-14.025,-0.0026918
4.6139,233.12,27.081,-13.34,130.05,0.016677,130.05,24.188,2.8939,-9.3706e-6,-9.5474,-0.0024774
4.6523,234.15,26.57,-13.173,130.98,0.016939,130.98,24.077,2.8969,-8.9869e-6,-5.8333,-0.0010999
4.7013,235.44,25.933,-12.82,132.15,0.017274,132.15,23.932,3.0439,-1.1009e-5,-3.5836,0.01123
4.7513,236.72,25.305,-12.349,133.35,0.017618,133.35,23.771,3.3457,-1.1622e-5,6.5189,-7.7791e-4
4.7868,237.61,24.87,-12.148,134.19,0.017863,134.19,23.65,3.4336,-1.1524e-5,11.376,-4.6164e-4
4.8131,238.26,24.551,-12.152,134.81,0.018045,134.81,23.561,3.3375,-1.0902e-5,15.287,6.3719e-4
4.8438,239.01,24.177,-12.289,135.53,0.018258,135.53,23.462,3.0905,-9.5992e-6,18.29,0.0019641
4.8898,240.11,23.611,-12.299,136.61,0.018579,136.61,23.323,2.9815,-1.1672e-5,20.25,-0.02397
4.9398,241.27,22.991,-12.497,137.77,0.018931,137.77,23.181,2.6672,-1.3615e-5,-19.544,-0.009064
4.9898,242.41,22.367,-12.414,138.92,0.019285,138.92,23.05,2.644,-1.0182e-5,-15.747,-0.0016345
5.0398,243.51,21.744,-12.564,140.07,0.019641,140.07,22.924,2.3302,-8.3318e-6,-10.801,0.0067393
5.0675,244.11,21.396,-12.466,140.71,0.019839,140.71,22.861,2.318,-8.4368e-6,-6.7055,0.006154
5.0977,244.75,21.023,-12.202,141.4,0.020056,141.4,22.789,2.4482,-9.0594e-6,-3.5835,0.0075992
5.143,245.69,20.486,-11.537,142.43,0.020383,142.43,22.667,2.9323,-9.7873e-6,4.5257,-0.0056146
5.1793,246.42,20.073,-11.295,143.25,0.020645,143.25,22.558,3.0432,-1.1128e-5,9.7665,-0.0065122
5.2039,246.91,19.795,-11.247,143.8,0.020825,143.8,22.483,3.0168,-1.0427e-5,13.796,-0.0044671
5.2285,247.4,19.519,-11.232,144.35,0.021004,144.35,22.409,2.9728,-1.0654e-5,17.729,-0.0069548
5.2546,247.9,19.225,-11.297,144.94,0.021195,144.94,22.333,2.8599,-9.8196e-6,21.355,-0.010515
5.288,248.54,18.845,-11.499,145.68,0.02144,145.68,22.241,2.618,-9.4364e-6,24.076,-0.017602
5.338,249.47,18.263,-11.771,146.79,0.02181,146.79,22.119,2.3134,-8.7393e-6,-23.389,-0.0013755
5.388,250.37,17.671,-11.863,147.89,0.022181,147.89,22.007,2.1668,-7.2908e-6,-18.841,6.9731e-4
5.425,251.01,17.232,-11.854,148.71,0.022458,148.71,21.928,2.0985,-6.8833e-6,-14.631,-0.001512
5.4582,251.58,16.839,-11.752,149.43,0.022707,149.43,21.859,2.0947,-7.0366e-6,-10.751,-9.9074e-5
5.4959,252.2,16.401,-11.5,150.26,0.022991,150.26,21.778,2.1891,-7.03e-6,-7.7163,0.0023576
5.5459,253.01,15.833,-11.219,151.34,0.02337,151.34,21.667,2.2528,-7.2822e-6,6.5896,0.11437
5.5959,253.79,15.284,-10.754,152.42,0.023749,152.42,21.548,2.4995,-8.7776e-6,9.7317,0.0068902
5.63,254.3,14.918,-10.719,153.16,0.024009,153.16,21.464,2.436,-1.038e-5,13.781,0.010318
5.6659,254.83,14.533,-10.716,153.93,0.024282,153.93,21.378,2.3617,-9.6001e-6,17.326,0.011456
5.7071,255.42,14.092,-10.742,154.8,0.024596,154.8,21.282,2.2764,-9.1415e-6,21.108,0.011254
5.7571,256.11,13.547,-11.018,155.87,0.024978,155.87,21.177,1.9844,-9.8158e-6,-22.094,0.078678
5.8071,256.77,12.998,-10.971,156.92,0.025362,156.92,21.078,1.9683,-9.5975e-6,-20.915,0.01636
5.8571,257.41,12.45,-10.916,157.97,0.025748,157.97,20.98,1.9461,-9.8855e-6,-19.555,-0.032516
5.9071,258.02,11.908,-10.759,159.02,0.026137,159.02,20.881,1.9982,-9.8067e-6,19.146,-0.22709
5.9571,258.6,11.371,-10.701,160.06,0.026528,160.06,20.783,1.9682,-9.7773e-6,19.244,-0.25681
6.0071,259.16,10.841,-10.539,161.1,0.026922,161.1,20.682,2.0243,-9.4182e-6,20.373,-0.067994
6.0571,259.69,10.314,-10.56,162.13,0.02732,162.13,20.583,1.9502,-9.4875e-6,21.623,-0.095015
6.1071,260.19,9.7842,-10.615,163.16,0.02772,163.16,20.488,1.8547,-9.2847e-6,-21.546,-0.059845
6.1571,260.66,9.2534,-10.621,164.18,0.028123,164.18,20.397,1.7882,-8.7849e-6,-20.482,0.01449
6.2071,261.11,8.7208,-10.64,165.2,0.028527,165.2,20.31,1.6931,-8.5427e-6,-18.277,0.03578
6.2571,261.54,8.1956,-10.375,166.21,0.028933,166.21,20.223,1.7875,-8.5893e-6,17.357,0.061658
6.3071,261.93,7.6819,-10.184,167.22,0.02934,167.22,20.133,1.8315,-8.9018e-6,18.82,0.0021485
6.3571,262.3,7.1754,-10.08,168.22,0.029749,168.22,20.041,1.8332,-9.082e-6,21.464,-0.013347
6.4071,262.65,6.6743,-9.9741,169.22,0.03016,169.22,19.948,1.8689,-1.0706e-5,24.905,-0.031984
6.4571,262.97,6.1764,-9.9811,170.22,0.030573,170.22,19.854,1.8673,-1.2019e-5,28.561,-0.053726
6.5071,263.27,5.6713,-10.215,171.21,0.03099,171.21,19.765,1.7305,-1.1474e-5,29.27,-6.0811
6.5571,263.54,5.1562,-10.373,172.19,0.031409,172.19,19.681,1.6431,-1.2204e-5,-28.244,-0.047157
6.6071,263.78,4.6362,-10.41,173.18,0.031832,173.18,19.599,1.6062,-1.2258e-5,-24.972,-0.036737
6.6571,264,4.117,-10.344,174.15,0.032257,174.15,19.519,1.5907,-1.2036e-5,-21.492,-0.032371
6.7071,264.2,3.6029,-10.208,175.13,0.032685,175.13,19.44,1.5749,-1.307e-5,-18.795,-0.020945
6.7571,264.36,3.0973,-10.01,176.1,0.033116,176.1,19.362,1.5819,-1.2903e-5,17.717,0.51775
6.8071,264.51,2.6022,-9.8037,177.06,0.033548,177.06,19.282,1.6021,-1.2756e-5,18.689,0.022257
6.8571,264.62,2.1157,-9.6667,178.03,0.033981,178.03,19.202,1.5933,-1.2512e-5,21.252,0.01514
6.8779,264.67,1.9149,-9.6352,178.43,0.034162,178.43,19.169,1.581,-1.2536e-5,22.564,0.013483
6.8822,264.67,1.8311,-33.406,178.51,0.034199,178.51,18.669,277.69,NaN,NaN,NaN
6.884,264.68,1.771,-32.145,178.54,0.034215,178.54,18.172,265.32,NaN,NaN,NaN
6.886,264.68,1.7104,-30.912,178.58,0.034231,178.58,17.676,253.23,NaN,NaN,NaN
6.8881,264.68,1.6493,-29.707,178.61,0.034247,178.61,17.18,241.42,NaN,NaN,NaN
6.8902,264.69,1.5878,-28.531,178.65,0.034264,178.65,16.683,229.88,NaN,NaN,NaN
6.8925,264.69,1.5256,-27.383,178.69,0.034282,178.69,16.187,218.63,NaN,NaN,NaN
6.8949,264.69,1.4629,-26.264,178.72,0.034299,178.72,15.691,207.65,NaN,NaN,NaN
6.8974,264.7,1.3995,-25.174,178.76,0.034318,178.76,15.195,196.96,NaN,NaN,NaN
6.9001,264.7,1.3354,-24.112,178.8,0.034336,178.8,14.699,186.54,NaN,NaN,NaN
6.9029,264.71,1.2705,-23.079,178.84,0.034356,178.84,14.204,176.4,NaN,NaN,NaN
6.9058,264.71,1.2047,-22.065,178.89,0.034376,178.89,13.708,166.29,NaN,NaN,NaN
6.909,264.71,1.138,-21.08,178.93,0.034396,178.93,13.212,156.46,NaN,NaN,NaN
6.9124,264.72,1.0701,-20.123,178.97,0.034417,178.97,12.717,146.91,NaN,NaN,NaN
6.916,264.72,1.0011,-19.195,179.02,0.034439,179.02,12.222,137.63,NaN,NaN,NaN
6.9198,264.72,0.93066,-18.295,179.06,0.034462,179.06,11.727,128.64,NaN,NaN,NaN
6.924,264.73,0.85877,-17.424,179.11,0.034486,179.11,11.232,119.93,NaN,NaN,NaN
6.9284,264.73,0.78521,-16.582,179.16,0.03451,179.16,10.737,111.49,NaN,NaN,NaN
6.9332,264.73,0.70979,-15.769,179.21,0.034536,179.21,10.243,103.34,NaN,NaN,NaN
6.9384,264.74,0.63226,-14.984,179.26,0.034562,179.26,9.7492,95.467,NaN,NaN,NaN
6.944,264.74,0.55234,-14.229,179.31,0.03459,179.31,9.2557,87.873,NaN,NaN,NaN
6.9501,264.74,0.46969,-13.503,179.37,0.034619,179.37,8.7625,80.561,NaN,NaN,NaN
6.9568,264.75,0.38391,-12.807,179.43,0.034649,179.43,8.2699,73.542,NaN,NaN,NaN
6.9641,264.75,0.29561,-12.157,179.48,0.034681,179.48,7.7778,67.756,NaN,NaN,NaN
6.9719,264.75,0.20449,-11.537,179.54,0.034714,179.54,7.2862,62.248,NaN,NaN,NaN
6.9806,264.75,0.11021,-10.947,179.6,0.034748,179.6,6.7951,57.018,NaN,NaN,NaN
6.99,264.75,0.012384,-10.387,179.67,0.034784,179.67,6.3048,52.066,NaN,NaN,NaN
7.0003,264.75,-0.089421,-9.8559,179.73,0.034821,179.73,5.8153,47.392,NaN,NaN,NaN
7.0117,264.75,-0.19573,-9.3535,179.79,0.034859,179.79,5.3267,42.987,NaN,NaN,NaN
7.0243,264.75,-0.30801,-8.8829,179.86,0.0349,179.86,4.8395,38.545,NaN,NaN,NaN
7.0384,264.74,-0.4272,-8.4404,179.92,0.034942,179.92,4.3539,34.387,NaN,NaN,NaN
7.0543,264.74,-0.55438,-8.0252,179.99,0.034987,179.99,3.8703,30.514,NaN,NaN,NaN
7.0721,264.72,-0.69073,-7.636,180.05,0.035034,180.05,3.3893,26.939,NaN,NaN,NaN
7.0923,264.71,-0.83748,-7.2703,180.11,0.035084,180.11,2.9113,23.68,NaN,NaN,NaN
7.1152,264.69,-0.99609,-6.9272,180.18,0.035136,180.18,2.4371,20.71,NaN,NaN,NaN
7.1416,264.66,-1.1707,-6.6258,180.23,0.035191,180.23,1.9686,17.773,NaN,NaN,NaN
7.1723,264.62,-1.3657,-6.3555,180.29,0.03525,180.29,1.5082,15.006,NaN,NaN,NaN
7.2081,264.57,-1.5839,-6.0939,180.33,0.035312,180.33,1.0583,12.567,NaN,NaN,NaN
7.2499,264.5,-1.8282,-5.8359,180.37,0.035378,180.37,0.62209,10.42,NaN,NaN,NaN
7.2992,264.4,-2.1033,-5.5845,180.39,0.035447,180.39,0.20457,8.4761,NaN,NaN,NaN
7.3589,264.26,-2.4262,-5.4106,180.39,0.035521,180.39,0.17717,6.3958,NaN,NaN,NaN
7.4296,264.08,-2.7823,-5.0325,180.36,0.035597,180.36,0.52819,4.9612,NaN,NaN,NaN
7.5138,263.83,-3.1528,-4.4016,180.31,0.035674,180.31,0.86396,3.9891,NaN,NaN,NaN
7.6133,263.5,-3.4872,-3.3592,180.2,0.035748,180.2,1.2357,3.7337,NaN,NaN,NaN
7.7431,263.03,-3.8048,-2.4477,180.02,0.035821,180.02,1.6219,2.9767,NaN,NaN,NaN
7.8721,262.53,-3.9319,-0.98536,179.78,0.035871,179.78,2.1054,3.7494,NaN,NaN,NaN
8.0911,261.65,-4.1292,-0.90104,179.26,0.035918,179.26,2.5648,2.0971,NaN,NaN,NaN
8.5911,259.55,-4.2508,-0.24319,177.95,0.035922,177.95,2.7039,0.2782,NaN,NaN,NaN
9.0911,257.47,-4.0867,0.32825,176.56,0.035877,176.56,2.8289,0.24992,NaN,NaN,NaN
9.5911,255.37,-4.3001,-0.4267,175.21,0.035836,175.21,2.5879,0.4819,NaN,NaN,NaN
9.8854,254.13,-4.1003,0.67901,174.38,0.035812,174.38,3.0463,1.5576,NaN,NaN,NaN
10.385,252.04,-4.2854,-0.37034,172.83,0.035769,172.83,3.1756,0.25855,NaN,NaN,NaN
10.885,249.96,-4.0293,0.51231,171.31,0.035722,171.31,2.9032,0.54481,NaN,NaN,NaN
11.292,248.27,-4.2868,-0.63337,170.04,0.035685,170.04,3.3317,1.0542,NaN,NaN,NaN
11.792,246.19,-4.0196,0.53436,168.28,0.035638,168.28,3.6997,0.73598,NaN,NaN,NaN
12.198,244.5,-4.2945,-0.67643,166.86,0.035596,166.86,3.2821,1.0277,NaN,NaN,NaN
12.545,243.05,-4.0765,0.62896,165.8,0.035559,165.8,2.8321,1.2983,NaN,NaN,NaN
13.045,240.95,-4.31,-0.46707,164.43,0.035514,164.43,2.6686,0.32693,NaN,NaN,NaN
13.545,238.88,-3.9959,0.62836,163.11,0.035473,163.11,2.6026,0.13217,NaN,NaN,NaN
14.017,236.9,-4.3776,-0.80832,161.8,0.035436,161.8,2.9254,0.68366,NaN,NaN,NaN
14.451,235.1,-3.9537,0.97841,160.48,0.035401,160.48,3.1905,0.61178,NaN,NaN,NaN
14.927,233.09,-4.4377,-1.0152,158.99,0.035357,158.99,3.0651,0.263,NaN,NaN,NaN
15.322,231.44,-3.9397,1.2628,157.79,0.03532,157.79,3.0205,0.11319,NaN,NaN,NaN
15.785,229.5,-4.439,-1.0778,156.38,0.035278,156.38,3.0461,0.055282,NaN,NaN,NaN
16.156,227.94,-3.9638,1.2807,155.22,0.035244,155.22,3.2016,0.41895,NaN,NaN,NaN
16.656,225.84,-4.4477,-0.96775,153.61,0.035197,153.61,3.2339,0.064676,NaN,NaN,NaN
17.024,224.29,-3.9606,1.3241,152.4,0.035161,152.4,3.3466,0.3063,NaN,NaN,NaN
17.524,222.19,-4.4491,-0.97713,150.71,0.035112,150.71,3.4464,0.19956,NaN,NaN,NaN
17.753,221.21,-4.1178,1.4482,149.96,0.035088,149.96,3.0719,1.6368,NaN,NaN,NaN
18.142,219.6,-4.1878,-0.17992,148.86,0.035051,148.86,2.5768,1.2726,NaN,NaN,NaN
18.58,217.77,-4.1312,0.12925,147.84,0.035014,147.84,2.08,1.1339,NaN,NaN,NaN
18.945,216.26,-4.1689,-0.10326,146.99,0.034989,146.99,2.5786,1.3643,NaN,NaN,NaN
19.427,214.25,-4.1526,0.033926,145.63,0.034954,145.63,3.0784,1.0375,NaN,NaN,NaN
19.927,212.17,-4.1935,-0.08177,144.02,0.034911,144.02,3.3316,0.50642,NaN,NaN,NaN
20.427,210.08,-4.1358,0.11544,142.43,0.034863,142.43,3.0447,0.57373,NaN,NaN,NaN
20.83,208.41,-4.1727,-0.091723,141.3,0.034825,141.3,2.5461,1.2371,NaN,NaN,NaN
21.33,206.32,-4.1703,0.0047958,140.02,0.034784,140.02,2.5694,0.046742,NaN,NaN,NaN
21.83,204.24,-4.1666,0.0073753,138.68,0.034746,138.68,2.8118,0.48474,NaN,NaN,NaN
22.33,202.16,-4.1623,0.0086189,137.18,0.034706,137.18,3.1864,0.74929,NaN,NaN,NaN
22.83,200.07,-4.1813,-0.03786,135.58,0.03466,135.58,3.2241,0.075292,NaN,NaN,NaN
23.33,197.99,-4.1518,0.058817,133.92,0.034612,133.92,3.3971,0.34603,NaN,NaN,NaN
23.83,195.9,-4.1911,-0.078517,132.26,0.034563,132.26,3.2443,0.30562,NaN,NaN,NaN
24.26,194.11,-4.1184,0.16883,130.76,0.03452,130.76,3.739,1.1494,NaN,NaN,NaN
24.76,192.03,-4.233,-0.22906,128.85,0.034468,128.85,3.9117,0.34549,NaN,NaN,NaN
24.878,191.54,-4.1134,1.0175,128.42,0.034454,128.42,3.4262,4.1305,NaN,NaN,NaN
25.069,190.75,-4.0996,0.071776,127.81,0.034433,127.81,2.9264,2.6109,NaN,NaN,NaN
25.461,189.12,-4.1931,-0.23844,126.76,0.034395,126.76,2.4353,1.2527,NaN,NaN,NaN
25.961,187.04,-4.1266,0.13311,125.47,0.034355,125.47,2.7002,0.52996,NaN,NaN,NaN
26.461,184.96,-4.2045,-0.15583,124.23,0.034317,124.23,2.286,0.82842,NaN,NaN,NaN
26.961,182.88,-4.1102,0.18855,123.02,0.034281,123.02,2.5295,0.48693,NaN,NaN,NaN
27.34,181.31,-4.1765,-0.17533,121.97,0.034254,121.97,3.0251,1.3101,NaN,NaN,NaN
27.84,179.23,-4.1514,0.050245,120.43,0.034213,120.43,3.1284,0.20661,NaN,NaN,NaN
28.34,177.15,-4.1646,-0.026338,118.98,0.034166,118.98,2.6756,0.90553,NaN,NaN,NaN
28.84,175.07,-4.152,0.025104,117.55,0.034124,117.55,3.0564,0.76152,NaN,NaN,NaN
29.34,172.99,-4.1806,-0.05723,115.99,0.034081,115.99,3.1965,0.28014,NaN,NaN,NaN
29.84,170.92,-4.1253,0.11063,114.28,0.034034,114.28,3.6157,0.83841,NaN,NaN,NaN
30.176,169.52,-4.1491,-0.070598,113.15,0.034001,113.15,3.1162,1.4858,NaN,NaN,NaN
30.676,167.44,-4.1754,-0.052686,111.67,0.033952,111.67,2.8249,0.58269,NaN,NaN,NaN
31.176,165.36,-4.1472,0.05642,110.27,0.033909,110.27,2.7653,0.11909,NaN,NaN,NaN
31.53,163.9,-4.1383,0.025033,109.38,0.03388,109.38,2.2654,1.4126,NaN,NaN,NaN
32.03,161.81,-4.1925,-0.10829,108.2,0.033843,108.2,2.4477,0.36454,NaN,NaN,NaN
32.53,159.74,-4.1208,0.14337,107,0.033809,107,2.3561,0.18312,NaN,NaN,NaN
32.831,158.49,-4.1374,-0.055124,106.21,0.033787,106.21,2.8558,1.6568,NaN,NaN,NaN
33.331,156.41,-4.1787,-0.082571,104.69,0.033747,104.69,3.2495,0.7873,NaN,NaN,NaN
33.831,154.33,-4.1345,0.088466,103.11,0.033701,103.11,3.0664,0.36618,NaN,NaN,NaN
34.331,152.25,-4.1876,-0.10622,101.65,0.033654,101.65,2.7697,0.59347,NaN,NaN,NaN
34.823,150.22,-4.1003,0.17759,100.17,0.033612,100.17,3.262,1.0021,NaN,NaN,NaN
35.323,148.13,-4.2384,-0.2761,98.568,0.033567,98.568,3.133,0.25808,NaN,NaN,NaN
35.823,146.06,-4.0504,0.37604,96.974,0.033519,96.974,3.2423,0.21873,NaN,NaN,NaN
36.323,143.97,-4.2974,-0.49407,95.293,0.033472,95.293,3.4812,0.47783,NaN,NaN,NaN
36.797,142.01,-3.9686,0.69273,93.73,0.033425,93.73,3.1046,0.7935,NaN,NaN,NaN
37.109,140.74,-4.2068,-0.76566,92.833,0.033394,92.833,2.665,1.4129,NaN,NaN,NaN
37.609,138.66,-4.0919,0.22972,91.497,0.033351,91.497,2.6774,0.024792,NaN,NaN,NaN
38.056,136.81,-4.2023,-0.24658,90.189,0.033317,90.189,3.165,1.0893,NaN,NaN,NaN
38.556,134.74,-4.0846,0.23543,88.692,0.033273,88.692,2.823,0.68412,NaN,NaN,NaN
39.056,132.66,-4.2321,-0.29501,87.167,0.033228,87.167,3.2791,0.91216,NaN,NaN,NaN
39.556,130.59,-4.0462,0.37194,85.593,0.033183,85.593,3.0176,0.52297,NaN,NaN,NaN
40.056,128.5,-4.3017,-0.51118,84.1,0.033136,84.1,2.9518,0.13162,NaN,NaN,NaN
40.556,126.44,-3.9518,0.69991,82.639,0.033092,82.639,2.8952,0.11311,NaN,NaN,NaN
40.954,124.79,-4.3072,-0.89282,81.416,0.033058,81.416,3.2469,0.88361,NaN,NaN,NaN
41.454,122.73,-3.9416,0.73119,79.769,0.033012,79.769,3.3405,0.18726,NaN,NaN,NaN
41.68,121.82,-4.1101,-0.74731,79.069,0.032991,79.069,2.8698,2.088,NaN,NaN,NaN
42.18,119.75,-4.1972,-0.17427,77.736,0.032946,77.736,2.4613,0.81692,NaN,NaN,NaN
42.68,117.68,-4.0868,0.22085,76.433,0.032907,76.433,2.7536,0.58457,NaN,NaN,NaN
43.18,115.59,-4.2409,-0.30834,75.017,0.032868,75.017,2.9073,0.30743,NaN,NaN,NaN
43.68,113.53,-4.0323,0.41736,73.569,0.032826,73.569,2.8867,0.041287,NaN,NaN,NaN
44.083,111.86,-4.2309,-0.49221,72.496,0.032792,72.496,2.4278,1.1368,NaN,NaN,NaN
44.583,109.79,-4.0441,0.37361,71.265,0.032753,71.265,2.4985,0.14123,NaN,NaN,NaN
45.083,107.71,-4.2859,-0.48361,69.94,0.032717,69.94,2.8013,0.6057,NaN,NaN,NaN
45.456,106.16,-4.0235,0.70423,68.975,0.032688,68.975,2.3757,1.1419,NaN,NaN,NaN
45.956,104.07,-4.3203,-0.59364,67.806,0.03265,67.806,2.3017,0.14808,NaN,NaN,NaN
46.425,102.14,-3.929,0.83496,66.654,0.032618,66.654,2.613,0.66416,NaN,NaN,NaN
46.858,100.34,-4.3621,-0.99946,65.468,0.032586,65.468,2.8628,0.57662,NaN,NaN,NaN
47.107,99.293,-4.0768,1.1468,64.705,0.032566,64.705,3.2735,1.6508,NaN,NaN,NaN
47.607,97.212,-4.246,-0.33832,63.03,0.032521,63.03,3.4242,0.30147,NaN,NaN,NaN
48.107,95.147,-4.0144,0.46314,61.283,0.032471,61.283,3.5653,0.2823,NaN,NaN,NaN
48.515,93.463,-4.244,-0.56307,59.919,0.032429,59.919,3.1212,1.0889,NaN,NaN,NaN
49.015,91.4,-4.0101,0.4678,58.426,0.03238,58.426,2.851,0.54038,NaN,NaN,NaN
49.515,89.314,-4.3314,-0.64257,57.008,0.032337,57.008,2.82,0.062109,NaN,NaN,NaN
50.015,87.259,-3.8891,0.8847,55.614,0.032296,55.614,2.7586,0.1228,NaN,NaN,NaN
50.393,85.706,-4.3278,-1.1603,54.616,0.032265,54.616,2.5188,0.63418,NaN,NaN,NaN
50.619,84.755,-4.0925,1.0418,53.997,0.032246,53.997,2.9599,1.9533,NaN,NaN,NaN
51.119,82.676,-4.221,-0.25704,52.514,0.032204,52.514,2.973,0.026192,NaN,NaN,NaN
51.619,80.611,-4.0413,0.35939,51.072,0.03216,51.072,2.7946,0.35692,NaN,NaN,NaN
52.119,78.531,-4.279,-0.47523,49.608,0.032118,49.608,3.0607,0.53231,NaN,NaN,NaN
52.444,77.178,-4.0436,0.72409,48.542,0.03209,48.542,3.5019,1.357,NaN,NaN,NaN
52.72,76.049,-4.1302,-0.31373,47.643,0.032065,47.643,3.0094,1.7831,NaN,NaN,NaN
53.22,73.976,-4.1627,-0.064912,46.089,0.032018,46.089,3.2032,0.38757,NaN,NaN,NaN
53.72,71.906,-4.1185,0.088331,44.446,0.031972,44.446,3.3706,0.33478,NaN,NaN,NaN
54.154,70.111,-4.1432,-0.056745,43.09,0.03193,43.09,2.8712,1.1497,NaN,NaN,NaN
54.654,68.039,-4.1463,-0.0062203,41.654,0.031885,41.654,2.875,0.0075328,NaN,NaN,NaN
55.154,65.967,-4.1401,0.012357,40.192,0.031843,40.192,2.9732,0.19646,NaN,NaN,NaN
55.347,65.176,-4.0828,0.29728,39.667,0.031826,39.667,2.4765,2.579,NaN,NaN,NaN
55.847,63.102,-4.2098,-0.25382,38.525,0.031787,38.525,2.0912,0.77054,NaN,NaN,NaN
56.08,62.137,-4.0883,0.52178,37.982,0.031771,37.982,2.5762,2.084,NaN,NaN,NaN
56.58,60.066,-4.196,-0.21547,36.583,0.031735,36.583,3.0208,0.88918,NaN,NaN,NaN
57.08,58,-4.0649,0.26225,35.023,0.031693,35.023,3.2163,0.39099,NaN,NaN,NaN
57.58,55.927,-4.2279,-0.32597,33.312,0.031646,33.312,3.6278,0.82301,NaN,NaN,NaN
57.953,54.383,-4.0463,0.48673,32.045,0.031608,32.046,3.162,1.2485,NaN,NaN,NaN
58.453,52.306,-4.2641,-0.43569,30.516,0.031559,30.516,2.9566,0.41083,NaN,NaN,NaN
58.774,50.972,-4.0449,0.68309,29.639,0.03153,29.639,2.5072,1.3998,NaN,NaN,NaN
59.274,48.894,-4.2684,-0.44699,28.365,0.03149,28.365,2.5876,0.1607,NaN,NaN,NaN
59.539,47.789,-4.0685,0.75361,27.618,0.03147,27.618,3.0459,1.7283,NaN,NaN,NaN
60.039,45.712,-4.2359,-0.33475,26.077,0.031428,26.077,3.1207,0.14969,NaN,NaN,NaN
60.348,44.429,-4.0599,0.56878,25.038,0.0314,25.038,3.5887,1.5124,NaN,NaN,NaN
60.848,42.353,-4.2445,-0.3693,23.277,0.031349,23.277,3.4563,0.2649,NaN,NaN,NaN
61.348,40.296,-3.9809,0.5273,21.634,0.031297,21.634,3.1179,0.67685,NaN,NaN,NaN
61.788,38.478,-4.2836,-0.688,20.349,0.031255,20.349,2.7199,0.90438,NaN,NaN,NaN
62.126,37.078,-4.0226,0.77423,19.504,0.031226,19.504,2.2935,1.2648,NaN,NaN,NaN
62.553,35.316,-4.2269,-0.47843,18.427,0.031194,18.427,2.7498,1.0682,NaN,NaN,NaN
63.036,33.328,-4.0008,0.46799,16.991,0.031157,16.991,3.1958,0.92298,NaN,NaN,NaN
63.347,32.061,-4.1601,-0.51273,16.071,0.031131,16.071,2.7218,1.5256,NaN,NaN,NaN
63.765,30.336,-4.0854,0.17853,14.83,0.031095,14.83,3.2162,1.182,NaN,NaN,NaN
64.265,28.263,-4.2062,-0.24145,13.217,0.03105,13.217,3.2325,0.032584,NaN,NaN,NaN
64.765,26.204,-4.031,0.35024,11.528,0.031002,11.528,3.5264,0.58787,NaN,NaN,NaN
65.092,24.864,-4.1543,-0.37642,10.452,0.030971,10.452,3.0419,1.4796,NaN,NaN,NaN
65.592,22.799,-4.1061,0.096425,8.9815,0.030923,8.9816,2.8406,0.40251,NaN,NaN,NaN
66.079,20.788,-4.1472,-0.084392,7.4763,0.030882,7.4764,3.3389,1.0229,NaN,NaN,NaN
66.579,18.724,-4.1107,0.073028,5.7395,0.030836,5.7396,3.6085,0.5392,NaN,NaN,NaN
66.867,17.545,-4.0998,0.038019,4.775,0.030806,4.7751,3.1086,1.7407,NaN,NaN,NaN
67.367,15.475,-4.1792,-0.15873,3.256,0.030758,3.2561,2.9675,0.28229,NaN,NaN,NaN
67.673,14.211,-4.0753,0.33886,2.4217,0.030731,2.4219,2.4784,1.5964,NaN,NaN,NaN
68.173,12.14,-4.2055,-0.26027,1.2478,0.030691,1.2482,2.2172,0.52229,NaN,NaN,NaN
68.383,11.272,-4.0812,0.59299,0.73239,0.030676,0.73303,2.7015,2.3109,NaN,NaN,NaN
68.883,9.202,-4.1988,-0.23513,-0.67124,0.030639,0.67194,2.913,0.42286,NaN,NaN,NaN
69.383,7.1428,-4.0382,0.32106,-2.0855,0.030597,2.0858,2.7442,0.3375,NaN,NaN,NaN
69.883,5.0719,-4.2454,-0.41443,-3.3694,0.030555,3.3695,2.3912,0.70599,NaN,NaN,NaN
70.284,3.4152,-4.0036,0.60206,-4.4178,0.030525,4.4179,2.8289,1.0895,NaN,NaN,NaN
70.718,1.6255,-4.2389,-0.54194,-5.742,0.030492,5.7421,3.27,1.0159,NaN,NaN,NaN
71.218,-0.42738,-3.9728,0.53234,-7.447,0.030446,7.447,3.55,0.55997,NaN,NaN,NaN
